[
  {
    "municipio": "São Paulo",
    "total_empresas": 1065,
    "codigo": 355030,
    "uf": "SP",
    "lat": -23.54,
    "lon": -46.63
  },
  {
    "municipio": "Ribeirão Preto",
    "total_empresas": 162,
    "codigo": 354340,
    "uf": "SP",
    "lat": -21.17,
    "lon": -47.81
  },
  {
    "municipio": "São Carlos",
    "total_empresas": 75,
    "codigo": 354890,
    "uf": "SP",
    "lat": -22.01,
    "lon": -47.89
  },
  {
    "municipio": "Piracicaba",
    "total_empresas": 68,
    "codigo": 353870,
    "uf": "SP",
    "lat": -22.72,
    "lon": -47.64
  },
  {
    "municipio": "Campinas",
    "total_empresas": 39,
    "codigo": 350950,
    "uf": "SP",
    "lat": -22.9,
    "lon": -47.06
  },
  {
    "municipio": "São José dos Campos",
    "total_empresas": 25,
    "codigo": 354990,
    "uf": "SP",
    "lat": -23.17,
    "lon": -45.88
  },
  {
    "municipio": "Cotia",
    "total_empresas": 21,
    "codigo": 351300,
    "uf": "SP",
    "lat": -23.6,
    "lon": -46.91
  },
  {
    "municipio": "Sorocaba",
    "total_empresas": 17,
    "codigo": 355220,
    "uf": "SP",
    "lat": -23.5,
    "lon": -47.45
  },
  {
    "municipio": "Barueri",
    "total_empresas": 17,
    "codigo": 350570,
    "uf": "SP",
    "lat": -23.51,
    "lon": -46.87
  },
  {
    "municipio": "Osasco",
    "total_empresas": 16,
    "codigo": 353440,
    "uf": "SP",
    "lat": -23.53,
    "lon": -46.79
  },
  {
    "municipio": "São Bernardo do Campo",
    "total_empresas": 14,
    "codigo": 354870,
    "uf": "SP",
    "lat": -23.69,
    "lon": -46.56
  },
  {
    "municipio": "Jundiaí",
    "total_empresas": 14,
    "codigo": 352590,
    "uf": "SP",
    "lat": -23.18,
    "lon": -46.88
  },
  {
    "municipio": "Guarulhos",
    "total_empresas": 13,
    "codigo": 351880,
    "uf": "SP",
    "lat": -23.46,
    "lon": -46.53
  },
  {
    "municipio": "Pirassununga",
    "total_empresas": 11,
    "codigo": 353930,
    "uf": "SP",
    "lat": -21.99,
    "lon": -47.42
  },
  {
    "municipio": "São Caetano do Sul",
    "total_empresas": 10,
    "codigo": 354880,
    "uf": "SP",
    "lat": -23.62,
    "lon": -46.55
  },
  {
    "municipio": "Santos",
    "total_empresas": 10,
    "codigo": 354850,
    "uf": "SP",
    "lat": -23.96,
    "lon": -46.33
  },
  {
    "municipio": "Franca",
    "total_empresas": 9,
    "codigo": 351620,
    "uf": "SP",
    "lat": -20.53,
    "lon": -47.4
  },
  {
    "municipio": "Bragança Paulista",
    "total_empresas": 9,
    "codigo": 350760,
    "uf": "SP",
    "lat": -22.95,
    "lon": -46.54
  },
  {
    "municipio": "Indaiatuba",
    "total_empresas": 9,
    "codigo": 352050,
    "uf": "SP",
    "lat": -23.09,
    "lon": -47.21
  },
  {
    "municipio": "Santo André",
    "total_empresas": 9,
    "codigo": 354780,
    "uf": "SP",
    "lat": -23.66,
    "lon": -46.53
  },
  {
    "municipio": "Santana de Parnaíba",
    "total_empresas": 9,
    "codigo": 354730,
    "uf": "SP",
    "lat": -23.44,
    "lon": -46.91
  },
  {
    "municipio": "Mogi das Cruzes",
    "total_empresas": 8,
    "codigo": 353060,
    "uf": "SP",
    "lat": -23.52,
    "lon": -46.18
  },
  {
    "municipio": "São José do Rio Preto",
    "total_empresas": 8,
    "codigo": 354980,
    "uf": "SP",
    "lat": -20.81,
    "lon": -49.37
  },
  {
    "municipio": "São Roque",
    "total_empresas": 7,
    "codigo": 355060,
    "uf": "SP",
    "lat": -23.52,
    "lon": -47.13
  },
  {
    "municipio": "Bauru",
    "total_empresas": 6,
    "codigo": 350600,
    "uf": "SP",
    "lat": -22.31,
    "lon": -49.06
  },
  {
    "municipio": "Americana",
    "total_empresas": 6,
    "codigo": 350160,
    "uf": "SP",
    "lat": -22.73,
    "lon": -47.33
  },
  {
    "municipio": "Araraquara",
    "total_empresas": 6,
    "codigo": 350320,
    "uf": "SP",
    "lat": -21.79,
    "lon": -48.17
  },
  {
    "municipio": "Itu",
    "total_empresas": 5,
    "codigo": 352390,
    "uf": "SP",
    "lat": -23.26,
    "lon": -47.29
  },
  {
    "municipio": "Valinhos",
    "total_empresas": 5,
    "codigo": 355620,
    "uf": "SP",
    "lat": -22.97,
    "lon": -46.99
  },
  {
    "municipio": "Rio Claro",
    "total_empresas": 4,
    "codigo": 354390,
    "uf": "SP",
    "lat": -22.41,
    "lon": -47.56
  },
  {
    "municipio": "Vinhedo",
    "total_empresas": 4,
    "codigo": 355670,
    "uf": "SP",
    "lat": -23.03,
    "lon": -46.97
  },
  {
    "municipio": "Taboão da Serra",
    "total_empresas": 4,
    "codigo": 355280,
    "uf": "SP",
    "lat": -23.6,
    "lon": -46.75
  },
  {
    "municipio": "Votuporanga",
    "total_empresas": 3,
    "codigo": 355710,
    "uf": "SP",
    "lat": -20.42,
    "lon": -49.97
  },
  {
    "municipio": "Cravinhos",
    "total_empresas": 3,
    "codigo": 351310,
    "uf": "SP",
    "lat": -21.34,
    "lon": -47.72
  },
  {
    "municipio": "Avaré",
    "total_empresas": 3,
    "codigo": 350450,
    "uf": "SP",
    "lat": -23.09,
    "lon": -48.92
  },
  {
    "municipio": "Limeira",
    "total_empresas": 3,
    "codigo": 352690,
    "uf": "SP",
    "lat": -22.56,
    "lon": -47.4
  },
  {
    "municipio": "Araras",
    "total_empresas": 3,
    "codigo": 350330,
    "uf": "SP",
    "lat": -22.35,
    "lon": -47.38
  },
  {
    "municipio": "Leme",
    "total_empresas": 3,
    "codigo": 352670,
    "uf": "SP",
    "lat": -22.18,
    "lon": -47.38
  },
  {
    "municipio": "São João da Boa Vista",
    "total_empresas": 3,
    "codigo": 354910,
    "uf": "SP",
    "lat": -21.96,
    "lon": -46.79
  },
  {
    "municipio": "Guaratinguetá",
    "total_empresas": 2,
    "codigo": 351840,
    "uf": "SP",
    "lat": -22.81,
    "lon": -45.19
  },
  {
    "municipio": "Diadema",
    "total_empresas": 2,
    "codigo": 351380,
    "uf": "SP",
    "lat": -23.68,
    "lon": -46.62
  },
  {
    "municipio": "Araçoiaba da Serra",
    "total_empresas": 2,
    "codigo": 350290,
    "uf": "SP",
    "lat": -23.5,
    "lon": -47.61
  },
  {
    "municipio": "Itatiba",
    "total_empresas": 2,
    "codigo": 352340,
    "uf": "SP",
    "lat": -23.0,
    "lon": -46.83
  },
  {
    "municipio": "Pindamonhangaba",
    "total_empresas": 2,
    "codigo": 353800,
    "uf": "SP",
    "lat": -22.92,
    "lon": -45.46
  },
  {
    "municipio": "Salto",
    "total_empresas": 2,
    "codigo": 354520,
    "uf": "SP",
    "lat": -23.2,
    "lon": -47.28
  },
  {
    "municipio": "Mairiporã",
    "total_empresas": 2,
    "codigo": 352850,
    "uf": "SP",
    "lat": -23.31,
    "lon": -46.58
  },
  {
    "municipio": "Poá",
    "total_empresas": 2,
    "codigo": 353980,
    "uf": "SP",
    "lat": -23.52,
    "lon": -46.34
  },
  {
    "municipio": "Mauá",
    "total_empresas": 2,
    "codigo": 352940,
    "uf": "SP",
    "lat": -23.66,
    "lon": -46.46
  },
  {
    "municipio": "Atibaia",
    "total_empresas": 2,
    "codigo": 350410,
    "uf": "SP",
    "lat": -23.11,
    "lon": -46.54
  },
  {
    "municipio": "Cajamar",
    "total_empresas": 2,
    "codigo": 350920,
    "uf": "SP",
    "lat": -23.35,
    "lon": -46.87
  },
  {
    "municipio": "Taubaté",
    "total_empresas": 2,
    "codigo": 355410,
    "uf": "SP",
    "lat": -23.02,
    "lon": -45.55
  },
  {
    "municipio": "São Pedro",
    "total_empresas": 2,
    "codigo": 355040,
    "uf": "SP",
    "lat": -22.54,
    "lon": -47.91
  },
  {
    "municipio": "Jaboticabal",
    "total_empresas": 2,
    "codigo": 352430,
    "uf": "SP",
    "lat": -21.25,
    "lon": -48.32
  },
  {
    "municipio": "Jandira",
    "total_empresas": 2,
    "codigo": 352500,
    "uf": "SP",
    "lat": -23.52,
    "lon": -46.9
  },
  {
    "municipio": "Tupã",
    "total_empresas": 2,
    "codigo": 355500,
    "uf": "SP",
    "lat": -21.93,
    "lon": -50.51
  },
  {
    "municipio": "Taquaritinga",
    "total_empresas": 2,
    "codigo": 355370,
    "uf": "SP",
    "lat": -21.4,
    "lon": -48.5
  },
  {
    "municipio": "Jacareí",
    "total_empresas": 2,
    "codigo": 352440,
    "uf": "SP",
    "lat": -23.3,
    "lon": -45.96
  },
  {
    "municipio": "Birigui",
    "total_empresas": 2,
    "codigo": 350650,
    "uf": "SP",
    "lat": -21.28,
    "lon": -50.34
  },
  {
    "municipio": "Praia Grande",
    "total_empresas": 2,
    "codigo": 354100,
    "uf": "SP",
    "lat": -24.0,
    "lon": -46.4
  },
  {
    "municipio": "Catanduva",
    "total_empresas": 2,
    "codigo": 351110,
    "uf": "SP",
    "lat": -21.13,
    "lon": -48.97
  },
  {
    "municipio": "Fernandópolis",
    "total_empresas": 1,
    "codigo": 351550,
    "uf": "SP",
    "lat": -20.28,
    "lon": -50.24
  },
  {
    "municipio": "Jaú",
    "total_empresas": 1,
    "codigo": 352530,
    "uf": "SP",
    "lat": -22.29,
    "lon": -48.55
  },
  {
    "municipio": "Bom Jesus dos Perdões",
    "total_empresas": 1,
    "codigo": 350710,
    "uf": "SP",
    "lat": -23.13,
    "lon": -46.46
  },
  {
    "municipio": "Registro",
    "total_empresas": 1,
    "codigo": 354260,
    "uf": "SP",
    "lat": -24.48,
    "lon": -47.84
  },
  {
    "municipio": "Águas de São Pedro",
    "total_empresas": 1,
    "codigo": 350060,
    "uf": "SP",
    "lat": -22.59,
    "lon": -47.87
  },
  {
    "municipio": "Marília",
    "total_empresas": 1,
    "codigo": 352900,
    "uf": "SP",
    "lat": -22.21,
    "lon": -49.94
  },
  {
    "municipio": "São Miguel Arcanjo",
    "total_empresas": 1,
    "codigo": 355020,
    "uf": "SP",
    "lat": -23.87,
    "lon": -47.99
  },
  {
    "municipio": "Socorro",
    "total_empresas": 1,
    "codigo": 355210,
    "uf": "SP",
    "lat": -22.59,
    "lon": -46.52
  },
  {
    "municipio": "Iguape",
    "total_empresas": 1,
    "codigo": 352030,
    "uf": "SP",
    "lat": -24.7,
    "lon": -47.55
  },
  {
    "municipio": "Sete Barras",
    "total_empresas": 1,
    "codigo": 355180,
    "uf": "SP",
    "lat": -24.38,
    "lon": -47.92
  },
  {
    "municipio": "Ubatuba",
    "total_empresas": 1,
    "codigo": 355540,
    "uf": "SP",
    "lat": -23.43,
    "lon": -45.07
  },
  {
    "municipio": "Serra Negra",
    "total_empresas": 1,
    "codigo": 355160,
    "uf": "SP",
    "lat": -22.61,
    "lon": -46.7
  },
  {
    "municipio": "Olímpia",
    "total_empresas": 1,
    "codigo": 353390,
    "uf": "SP",
    "lat": -20.73,
    "lon": -48.91
  },
  {
    "municipio": "Ibitinga",
    "total_empresas": 1,
    "codigo": 351960,
    "uf": "SP",
    "lat": -21.75,
    "lon": -48.82
  },
  {
    "municipio": "Tanabi",
    "total_empresas": 1,
    "codigo": 355340,
    "uf": "SP",
    "lat": -20.62,
    "lon": -49.64
  },
  {
    "municipio": "Bertioga",
    "total_empresas": 1,
    "codigo": 350635,
    "uf": "SP",
    "lat": -23.85,
    "lon": -46.13
  },
  {
    "municipio": "Lins",
    "total_empresas": 1,
    "codigo": 352710,
    "uf": "SP",
    "lat": -21.67,
    "lon": -49.74
  },
  {
    "municipio": "Carapicuíba",
    "total_empresas": 1,
    "codigo": 351060,
    "uf": "SP",
    "lat": -23.52,
    "lon": -46.83
  },
  {
    "municipio": "Mococa",
    "total_empresas": 1,
    "codigo": 353050,
    "uf": "SP",
    "lat": -21.46,
    "lon": -47.0
  },
  {
    "municipio": "Brotas",
    "total_empresas": 1,
    "codigo": 350790,
    "uf": "SP",
    "lat": -22.28,
    "lon": -48.12
  },
  {
    "municipio": "Águas da Prata",
    "total_empresas": 1,
    "codigo": 350040,
    "uf": "SP",
    "lat": -21.93,
    "lon": -46.71
  },
  {
    "municipio": "Aguaí",
    "total_empresas": 1,
    "codigo": 350030,
    "uf": "SP",
    "lat": -22.05,
    "lon": -46.97
  },
  {
    "municipio": "Tambaú",
    "total_empresas": 1,
    "codigo": 355330,
    "uf": "SP",
    "lat": -21.7,
    "lon": -47.27
  },
  {
    "municipio": "Porto Feliz",
    "total_empresas": 1,
    "codigo": 354060,
    "uf": "SP",
    "lat": -23.21,
    "lon": -47.52
  },
  {
    "municipio": "Brodowski",
    "total_empresas": 1,
    "codigo": 350780,
    "uf": "SP",
    "lat": -20.99,
    "lon": -47.65
  },
  {
    "municipio": "Itapetininga",
    "total_empresas": 1,
    "codigo": 352230,
    "uf": "SP",
    "lat": -23.59,
    "lon": -48.05
  },
  {
    "municipio": "Lorena",
    "total_empresas": 1,
    "codigo": 352720,
    "uf": "SP",
    "lat": -22.73,
    "lon": -45.12
  },
  {
    "municipio": "Dois Córregos",
    "total_empresas": 1,
    "codigo": 351410,
    "uf": "SP",
    "lat": -22.36,
    "lon": -48.38
  },
  {
    "municipio": "Ribeirão Pires",
    "total_empresas": 1,
    "codigo": 354330,
    "uf": "SP",
    "lat": -23.71,
    "lon": -46.41
  },
  {
    "municipio": "Lençóis Paulista",
    "total_empresas": 1,
    "codigo": 352680,
    "uf": "SP",
    "lat": -22.59,
    "lon": -48.79
  },
  {
    "municipio": "Piedade",
    "total_empresas": 1,
    "codigo": 353780,
    "uf": "SP",
    "lat": -23.71,
    "lon": -47.42
  },
  {
    "municipio": "Caraguatatuba",
    "total_empresas": 1,
    "codigo": 351050,
    "uf": "SP",
    "lat": -23.62,
    "lon": -45.41
  },
  {
    "municipio": "Colina",
    "total_empresas": 1,
    "codigo": 351200,
    "uf": "SP",
    "lat": -20.71,
    "lon": -48.54
  },
  {
    "municipio": "Taquarituba",
    "total_empresas": 1,
    "codigo": 355380,
    "uf": "SP",
    "lat": -23.53,
    "lon": -49.24
  },
  {
    "municipio": "Guarujá",
    "total_empresas": 1,
    "codigo": 351870,
    "uf": "SP",
    "lat": -23.99,
    "lon": -46.25
  },
  {
    "municipio": "Espírito Santo do Pinhal",
    "total_empresas": 1,
    "codigo": 351518,
    "uf": "SP",
    "lat": -22.19,
    "lon": -46.74
  },
  {
    "municipio": "Francisco Morato",
    "total_empresas": 1,
    "codigo": 351630,
    "uf": "SP",
    "lat": -23.28,
    "lon": -46.74
  },
  {
    "municipio": "Jardinópolis",
    "total_empresas": 1,
    "codigo": 352510,
    "uf": "SP",
    "lat": -21.01,
    "lon": -47.76
  },
  {
    "municipio": "Bebedouro",
    "total_empresas": 1,
    "codigo": 350610,
    "uf": "SP",
    "lat": -20.94,
    "lon": -48.47
  },
  {
    "municipio": "Paulínia",
    "total_empresas": 1,
    "codigo": 353650,
    "uf": "SP",
    "lat": -22.76,
    "lon": -47.15
  },
  {
    "municipio": "Capivari",
    "total_empresas": 1,
    "codigo": 351040,
    "uf": "SP",
    "lat": -22.99,
    "lon": -47.5
  },
  {
    "municipio": "Sumaré",
    "total_empresas": 1,
    "codigo": 355240,
    "uf": "SP",
    "lat": -22.82,
    "lon": -47.26
  },
  {
    "municipio": "Angatuba",
    "total_empresas": 1,
    "codigo": 350220,
    "uf": "SP",
    "lat": -23.48,
    "lon": -48.41
  },
  {
    "municipio": "Rio das Pedras",
    "total_empresas": 1,
    "codigo": 354400,
    "uf": "SP",
    "lat": -22.84,
    "lon": -47.6
  },
  {
    "municipio": "Pedrinhas Paulista",
    "total_empresas": 1,
    "codigo": 353715,
    "uf": "SP",
    "lat": -22.81,
    "lon": -50.79
  },
  {
    "municipio": "Araçatuba",
    "total_empresas": 1,
    "codigo": 350280,
    "uf": "SP",
    "lat": -21.2,
    "lon": -50.43
  },
  {
    "municipio": "Pompéia",
    "total_empresas": 1,
    "codigo": 354000,
    "uf": "SP",
    "lat": -22.1,
    "lon": -50.17
  },
  {
    "municipio": "São Sebastião",
    "total_empresas": 1,
    "codigo": 355070,
    "uf": "SP",
    "lat": -23.76,
    "lon": -45.4
  },
  {
    "municipio": "Caieiras",
    "total_empresas": 1,
    "codigo": 350900,
    "uf": "SP",
    "lat": -23.36,
    "lon": -46.74
  },
  {
    "municipio": "Itupeva",
    "total_empresas": 1,
    "codigo": 352400,
    "uf": "SP",
    "lat": -23.15,
    "lon": -47.05
  },
  {
    "municipio": "Louveira",
    "total_empresas": 1,
    "codigo": 352730,
    "uf": "SP",
    "lat": -23.08,
    "lon": -46.95
  },
  {
    "municipio": "Holambra",
    "total_empresas": 1,
    "codigo": 351905,
    "uf": "SP",
    "lat": -22.63,
    "lon": -47.05
  },
  {
    "municipio": "Ibiúna",
    "total_empresas": 1,
    "codigo": 351970,
    "uf": "SP",
    "lat": -23.65,
    "lon": -47.22
  },
  {
    "municipio": "Porto Ferreira",
    "total_empresas": 1,
    "codigo": 354070,
    "uf": "SP",
    "lat": -21.85,
    "lon": -47.47
  },
  {
    "municipio": "Sertãozinho",
    "total_empresas": 1,
    "codigo": 355170,
    "uf": "SP",
    "lat": -21.13,
    "lon": -47.99
  },
  {
    "municipio": "Nhandeara",
    "total_empresas": 1,
    "codigo": 353260,
    "uf": "SP",
    "lat": -20.69,
    "lon": -50.03
  },
  {
    "municipio": "Ibaté",
    "total_empresas": 1,
    "codigo": 351930,
    "uf": "SP",
    "lat": -21.95,
    "lon": -47.99
  },
  {
    "municipio": "Itanhaém",
    "total_empresas": 1,
    "codigo": 352210,
    "uf": "SP",
    "lat": -24.18,
    "lon": -46.78
  },
  {
    "municipio": "Palmares Paulista",
    "total_empresas": 1,
    "codigo": 353510,
    "uf": "SP",
    "lat": -21.08,
    "lon": -48.8
  },
  {
    "municipio": "Presidente Prudente",
    "total_empresas": 1,
    "codigo": 354140,
    "uf": "SP",
    "lat": -22.12,
    "lon": -51.38
  }
]
